City_ID,City,Lat,Lng,Max Temp,Humidity,Cloudiness,Wind Speed,Country,Date
0,puerto natales,-51.7236,-72.4875,9.86,72,73,8.62,CL,1705712077
1,monte alegre,-2.0078,-54.0692,25.92,80,42,1.97,BR,1705712077
2,adamstown,-25.066,-130.1015,24.43,79,40,6.93,PN,1705712077
3,ribeira grande,38.5167,-28.7,14.87,90,97,2.68,PT,1705712077
4,whitehorse,60.7161,-135.0538,-25.39,71,20,1.54,CA,1705712003
5,barmer,25.75,71.3833,13.51,23,0,2.72,IN,1705712077
6,yellowknife,62.456,-114.3525,-22.71,84,20,1.54,CA,1705712078
7,uturoa,-16.7333,-151.4333,28.13,70,13,2.33,PF,1705712078
8,dunedin,-45.8742,170.5036,26.15,65,75,2.68,NZ,1705712078
9,port-aux-francais,-49.35,70.2167,6.2,82,100,10.95,TF,1705712078
10,puerto ayora,-0.7393,-90.3518,25.86,95,64,2.24,EC,1705712079
11,bethel,41.3712,-73.414,-3.37,70,100,3.09,US,1705711832
12,aasiaat,68.7098,-52.8699,-13.02,82,100,8.54,GL,1705712079
13,chita,52.0333,113.55,-35.06,68,62,0.0,RU,1705712079
14,fort-shevchenko,44.5086,50.263,5.8,82,100,15.6,KZ,1705712079
15,porto novo,6.4965,2.6036,28.9,77,5,2.29,BJ,1705712079
16,margaret river,-33.95,115.0667,22.51,55,0,0.48,AU,1705712080
17,grytviken,-54.2811,-36.5092,4.95,97,100,2.81,GS,1705712080
18,edinburgh of the seven seas,-37.0676,-12.3116,15.64,64,7,4.56,SH,1705712080
19,ilulissat,69.2167,-51.1,-9.99,79,100,6.17,GL,1705712080
20,tommot,58.9564,126.2925,-26.0,97,100,1.65,RU,1705712080
21,saipan,15.1355,145.701,27.39,61,75,11.32,MP,1705712080
22,albany,42.6001,-73.9662,-6.29,71,100,0.89,US,1705712080
23,cesme,38.3228,26.3064,13.84,94,20,2.57,TR,1705712080
24,hawaiian paradise park,19.5933,-154.9731,26.73,79,0,5.66,US,1705712081
25,tsiombe,-25.3,45.4833,23.67,91,94,5.01,MG,1705712081
26,sousa,-6.7592,-38.2281,26.5,73,97,3.62,BR,1705712081
27,nizhneudinsk,54.9076,99.0276,-25.57,98,47,1.34,RU,1705712081
28,suva,-18.1416,178.4415,30.71,79,75,3.6,FJ,1705711788
29,nouadhibou,20.931,-17.0347,19.99,77,4,6.69,MR,1705712082
30,praia da vitoria,38.7333,-27.0667,17.14,67,20,4.39,PT,1705712082
31,ushuaia,-54.8,-68.3,7.81,61,75,8.75,AR,1705712082
32,remire-montjoly,4.9167,-52.2667,26.02,89,75,3.6,GF,1705712082
33,kidal,18.4411,1.4078,20.13,10,32,3.86,ML,1705712082
34,bilibino,68.0546,166.4372,-15.38,97,99,0.61,RU,1705712082
35,tiksi,71.6872,128.8694,-31.71,96,100,4.21,RU,1705712083
36,skeldon,5.8833,-57.1333,25.93,81,8,4.34,GY,1705712083
37,punta del este,-34.9667,-54.95,19.42,81,75,6.17,UY,1705712083
38,holualoa,19.6228,-155.9522,25.99,77,20,6.69,US,1705712083
39,nova sintra,14.8667,-24.7167,20.3,67,37,10.48,CV,1705712083
40,puerto leguizamo,-0.1934,-74.7819,23.68,94,99,1.34,CO,1705712084
41,blackmans bay,-43.0167,147.3167,19.29,73,100,0.45,AU,1705712084
42,lebu,-37.6167,-73.65,14.32,81,0,10.42,CL,1705712084
43,waitangi,-43.9535,-176.5597,19.9,94,18,11.09,NZ,1705712084
44,fort bragg,35.139,-79.006,4.91,40,0,8.23,US,1705712084
45,tabora,-5.0167,32.8,17.98,96,100,1.2,TZ,1705712084
46,el calafate,-50.3408,-72.2768,10.13,72,64,5.31,AR,1705712084
47,georgetown,5.4112,100.3354,27.19,95,20,2.06,MY,1705711856
48,atafu village,-8.5421,-172.5159,29.43,68,97,6.58,TK,1705712085
49,almodovar,37.4959,-8.0937,9.15,96,5,3.92,PT,1705712085
50,churachandpur,24.3333,93.6667,4.85,87,2,0.81,IN,1705712085
51,polyarnyy,69.1989,33.4478,-6.66,92,100,4.92,RU,1705712085
52,ejura,7.3856,-1.3562,25.79,39,0,2.16,GH,1705712085
53,iskateley,67.6803,53.1512,-12.77,93,100,7.15,RU,1705712085
54,levuka,50.1834,-105.4011,-16.16,97,92,2.67,CA,1705712085
55,carbonear,47.7332,-53.2148,-1.99,78,99,9.64,CA,1705712086
56,badger,64.8,-147.5333,-22.07,76,0,0.0,US,1705712086
57,olonkinbyen,70.9221,-8.7187,-0.98,74,100,9.75,SJ,1705712086
58,ruidoso,33.3317,-105.673,5.84,42,0,4.12,US,1705712086
59,kapuskasing,49.4169,-82.4331,-16.0,72,75,5.66,CA,1705711921
60,constantia,44.1833,28.65,1.5,86,100,8.6,RO,1705712086
61,mabaruma,8.2,-59.7833,23.67,84,5,2.26,GY,1705712086
62,tofol,5.3248,163.0078,25.88,94,100,9.26,FM,1705712086
63,hithadhoo,-0.6,73.0833,27.77,69,29,3.46,MV,1705712087
64,iqaluit,63.7506,-68.5145,-20.15,71,0,6.17,CA,1705712087
65,tolanaro,-25.0319,46.9987,25.04,94,75,4.12,MG,1705712087
66,besbes,36.7022,7.8472,13.91,82,100,2.57,DZ,1705712087
67,abong mbang,3.9833,13.1833,19.58,29,4,0.88,CM,1705712087
68,ghat,24.9647,10.1728,18.97,8,100,2.2,LY,1705712087
69,papatowai,-46.5619,169.4708,19.71,60,24,5.75,NZ,1705712088
70,hailar,49.2,119.7,-26.55,90,100,2.68,CN,1705712088
71,ciudad lazaro cardenas,17.9583,-102.2,26.19,73,100,2.29,MX,1705712088
72,gamba,-2.65,10.0,25.67,90,4,2.6,GA,1705712088
73,ain sefra,32.75,-0.5833,7.42,79,6,3.35,DZ,1705712088
74,alofi,-19.0595,-169.9187,29.94,79,75,4.12,NU,1705712088
75,ingeniero jacobacci,-41.3427,-69.5448,21.54,14,0,5.86,AR,1705712088
76,bredasdorp,-34.5322,20.0403,19.3,84,0,2.35,ZA,1705712088
77,palembang,-2.9167,104.7458,25.05,94,75,3.09,ID,1705712089
78,puerto baquerizo moreno,-0.9,-89.6,25.26,87,53,3.74,EC,1705712089
79,coquimbo,-29.9533,-71.3436,17.85,82,0,3.6,CL,1705712089
80,mulayjah,27.271,48.4242,14.41,50,9,4.37,SA,1705712089
81,alo,7.4178,6.7371,24.31,18,0,0.24,NG,1705712089
82,chonchi,-42.6128,-73.8092,16.56,77,0,2.36,CL,1705712089
83,sitka,57.0531,-135.33,3.94,52,100,2.57,US,1705712089
84,invercargill,-46.4,168.35,18.9,74,85,3.58,NZ,1705712089
85,udachny,66.4167,112.4,-31.42,82,100,2.01,RU,1705712090
86,kuala lipis,4.1842,102.0468,23.24,88,100,0.52,MY,1705712090
87,klyuchi,52.2667,79.1667,-16.0,89,99,2.77,RU,1705712090
88,tongouson,5.0214,120.1328,27.43,81,100,6.3,PH,1705712090
89,margate,51.3813,1.3862,2.61,75,19,2.24,GB,1705712090
90,abrego,8.0807,-73.2205,18.29,68,3,2.92,CO,1705712090
91,cambridge,43.3601,-80.3127,-10.37,73,100,5.66,CA,1705711946
92,mount isa,-20.7333,139.5,28.87,84,100,3.09,AU,1705712090
93,hermanus,-34.4187,19.2345,22.5,56,0,3.94,ZA,1705712091
94,san julian,21.0167,-102.1667,18.26,19,100,2.01,MX,1705712091
95,kokpekty,48.75,82.4,-17.02,81,100,1.53,KZ,1705712091
96,ust-nera,64.5667,143.2,-39.67,98,98,1.43,RU,1705712091
97,port elizabeth,-33.918,25.5701,19.16,81,0,5.66,ZA,1705712091
98,antalaha,-14.9003,50.2788,24.31,91,100,1.3,MG,1705712091
99,cova figueira,14.8905,-24.2934,20.33,69,72,8.08,CV,1705712091
100,kailua-kona,19.6406,-155.9956,28.06,76,20,6.69,US,1705712091
101,kristiansund,63.1115,7.732,-2.97,100,52,1.03,NO,1705712092
102,gracemere,-23.4333,150.45,31.95,62,100,4.12,AU,1705712092
103,carnarvon,-24.8667,113.6333,25.93,65,40,9.45,AU,1705712092
104,vorgashor,67.5833,63.95,-14.82,94,100,7.7,RU,1705712092
105,svetlyy,54.675,20.1347,-0.91,92,100,5.55,RU,1705712092
106,shalqar,47.8333,59.6,-11.77,90,75,3.72,KZ,1705712092
107,kodiak,57.79,-152.4072,3.73,65,40,9.26,US,1705712092
108,itoman,26.1247,127.6694,23.21,78,75,5.14,JP,1705712093
109,mermoz boabab,14.7065,-17.4758,22.88,78,75,4.12,SN,1705712093
110,luanda,-8.8368,13.2343,26.0,79,40,1.03,AO,1705712093
111,nagqu,31.5,92.0,-19.73,90,5,1.35,CN,1705712093
112,cadale,2.7603,46.3222,24.35,80,76,8.74,SO,1705712093
113,christchurch,-43.5333,172.6333,33.56,25,2,10.29,NZ,1705712057
114,songyuan,45.1171,124.8568,-18.3,74,100,5.61,CN,1705712093
115,kani keli,-12.9536,45.1033,28.59,77,100,9.36,YT,1705712093
116,petropavlovsk-kamchatsky,53.0452,158.6483,-3.64,96,100,2.24,RU,1705712093
117,college,64.8569,-147.8028,-22.03,59,20,0.0,US,1705712094
118,anadyr,64.75,177.4833,-9.72,100,40,2.0,RU,1705712094
119,ulan bator,47.9077,106.8832,-24.93,77,75,1.0,MN,1705712094
120,nizhnesortymskiy,62.4397,71.7603,-13.29,86,100,10.81,RU,1705712094
121,igarka,67.4667,86.5833,-16.4,95,100,7.33,RU,1705712094
122,wad rawah,15.1603,33.1397,18.79,23,38,4.42,SD,1705712094
123,jayapura,-2.5333,140.7,26.66,89,100,0.87,ID,1705712094
124,bethanie,-26.4833,17.15,24.39,28,6,2.14,NA,1705712094
125,pangody,65.85,74.4859,-13.88,84,100,12.0,RU,1705712095
126,cancun,21.1743,-86.8466,25.03,88,40,0.0,MX,1705711867
127,fomboni,-12.28,43.7425,28.25,80,100,10.39,KM,1705712095
128,port blair,11.6667,92.75,22.02,94,100,1.03,IN,1705712095
129,sacramento,38.4666,-121.3177,15.72,84,40,2.57,US,1705711816
130,nemuro,43.3236,145.575,-4.37,53,7,6.73,JP,1705712095
131,tharad,24.3961,71.6267,13.96,37,4,2.82,IN,1705712095
132,utrik,11.2278,169.8474,26.12,80,100,10.37,MH,1705712095
133,jamkhandi,16.5167,75.3,20.52,62,5,2.09,IN,1705712096
134,palikir - national government center,6.9248,158.1611,28.41,74,100,5.66,FM,1705712096
135,gadzhiyevo,69.2551,33.3362,-6.05,92,100,5.69,RU,1705712096
136,pervomayskiy,53.2485,40.2871,-4.56,93,100,4.91,RU,1705712096
137,inhambane,-23.865,35.3833,23.62,77,32,6.73,MZ,1705712096
138,oyama,36.3,139.8,8.66,45,100,2.77,JP,1705712096
139,wailua homesteads,22.0669,-159.378,26.24,80,100,5.14,US,1705712096
140,pimentel,-6.8367,-79.9342,25.16,73,0,9.26,PE,1705712096
141,boa vista,2.8197,-60.6733,28.99,51,0,3.6,BR,1705712096
142,longyearbyen,78.2186,15.6401,-18.09,60,0,5.14,SJ,1705712097
143,lompoc,34.6391,-120.4579,18.08,78,75,6.17,US,1705712097
144,arica,-18.475,-70.3042,24.75,73,0,1.54,CL,1705711773
145,saudarkrokur,65.7461,-19.6394,-5.4,77,100,1.16,IS,1705712097
146,shimoda,34.6667,138.95,8.2,87,100,7.71,JP,1705712097
147,lihue,21.9789,-159.3672,26.58,81,100,5.14,US,1705712097
148,qaqortoq,60.7167,-46.0333,-5.55,76,97,3.62,GL,1705712097
149,banda aceh,5.5577,95.3222,25.99,79,100,4.02,ID,1705712097
150,crucecita,-28.95,-58.9833,24.11,83,3,3.32,AR,1705712098
151,castillos,-34.1667,-53.8333,20.1,75,68,5.49,UY,1705712098
152,kingston,17.997,-76.7936,27.53,74,20,5.14,JM,1705711968
153,yanchep,-31.55,115.6833,28.12,48,0,2.21,AU,1705712098
154,serenje,-13.2325,30.2352,17.59,98,100,3.49,ZM,1705712098
155,nova borova,50.693,28.6345,-3.27,90,100,4.19,UA,1705712098
156,revda,56.801,59.9303,-3.08,64,100,6.16,RU,1705712098
157,lazaro cardenas,17.9583,-102.2,26.19,73,100,2.29,MX,1705712098
158,taupo,-38.6833,176.0833,21.8,76,71,2.38,NZ,1705712098
159,north saanich,48.6663,-123.4193,5.26,98,100,2.06,CA,1705712099
160,jamestown,42.097,-79.2353,-7.94,91,100,3.09,US,1705712028
161,punta arenas,-53.15,-70.9167,10.06,71,40,15.43,CL,1705712099
162,tevriz,57.509,72.4042,-30.65,100,100,1.19,RU,1705712099
163,leticia,-4.2153,-69.9406,26.03,94,20,1.03,CO,1705712099
164,port lincoln,-34.7333,135.8667,27.63,34,15,3.22,AU,1705712099
165,akureyri,65.6835,-18.0878,-12.04,72,0,3.09,IS,1705712099
166,hanceville,34.0607,-86.7675,-0.81,83,41,4.36,US,1705712099
167,tarawa,1.419,172.984,32.05,66,40,4.63,KI,1705712099
168,horseheads,42.167,-76.8205,-7.89,78,100,1.54,US,1705712100
169,lushnje,40.9419,19.705,12.95,78,100,1.89,AL,1705712100
170,shache,38.4167,77.2406,-2.94,55,65,2.02,CN,1705712100
171,vilyuchinsk,52.9306,158.4028,-2.82,97,100,1.6,RU,1705712100
172,jingdezhen,29.2947,117.2079,5.42,88,100,2.6,CN,1705712100
173,yaren,-0.5472,166.916,29.22,75,100,5.67,NR,1705712100
174,fuerte olimpo,-21.0415,-57.8738,33.03,37,64,2.73,PY,1705712101
175,wakkanai,45.4094,141.6739,-8.01,86,75,7.2,JP,1705712101
176,bovalino,38.149,16.174,19.63,59,100,1.17,IT,1705712101
177,fale old settlement,-9.3852,-171.2468,29.38,65,27,4.91,TK,1705712101
178,enewetak,11.3474,162.3373,25.98,66,14,10.61,MH,1705712101
179,antonio enes,-16.2325,39.9086,24.58,91,100,5.94,MZ,1705712101
180,avarua,-21.2078,-159.775,27.03,78,20,4.63,CK,1705712101
181,monkey bay,-14.0728,34.9201,23.42,84,100,4.73,MW,1705712101
182,vadso,70.0744,29.7487,-5.91,73,75,6.17,NO,1705712102
183,amga,60.8953,131.9608,-39.27,100,100,0.58,RU,1705712102
184,balykshi,47.0667,51.8667,-4.0,74,0,11.0,KZ,1705712102
185,nar'yan-mar,67.6713,53.087,-12.72,93,100,7.15,RU,1705712102
186,west island,-12.1568,96.8225,26.99,94,40,3.6,CC,1705712102
187,teays valley,38.4501,-81.9293,-4.06,73,100,4.1,US,1705712102
188,dudinka,69.4058,86.1778,-16.32,91,100,10.97,RU,1705712102
189,bikenibeu village,1.3673,173.1241,31.98,66,40,4.63,KI,1705712103
190,louis trichardt,-23.0439,29.9032,14.83,92,100,6.1,ZA,1705712103
191,pryamitsyno,51.6561,35.9314,-1.7,91,100,4.18,RU,1705712103
192,taroa,8.7058,171.2275,27.3,79,23,8.46,MH,1705712103
193,talnakh,69.4865,88.3972,-16.55,93,97,6.85,RU,1705712103
194,plastun,44.7561,136.2939,-13.47,43,97,3.5,RU,1705712103
195,ostrovskoye,57.8057,42.2433,-17.02,98,94,2.27,RU,1705712103
196,okhotsk,59.3833,143.3,-23.2,98,100,2.7,RU,1705712103
197,san rafael del yuma,18.4299,-68.6739,25.11,86,2,2.75,DO,1705712104
198,kapa'a,22.0752,-159.319,26.99,80,100,5.14,US,1705712104
199,yuzhno-kurilsk,44.0306,145.8556,-5.35,56,80,6.46,RU,1705712104
200,stanley,54.868,-1.6985,4.74,74,0,5.14,GB,1705712104
201,shixing,24.9482,114.0657,13.19,79,100,1.43,CN,1705712104
202,singrauli,24.1997,82.6753,7.48,58,0,0.5,IN,1705712104
203,port mathurin,-19.6833,63.4167,27.42,79,71,5.64,MU,1705712104
204,rikaze,29.25,88.8833,-5.92,26,0,1.31,CN,1705712105
205,zirl,47.3028,11.2745,-13.17,89,2,1.03,AT,1705712105
206,medvezh'yegorsk,62.9167,34.4667,-13.83,90,99,4.28,RU,1705712105
207,port macquarie,-31.4333,152.9167,27.16,60,0,4.17,AU,1705712105
208,barah,13.7,30.3667,14.38,20,0,4.32,SD,1705712105
209,floro,61.5996,5.0328,-2.02,86,20,3.09,NO,1705712105
210,tshikapa,-6.4167,20.8,24.43,72,100,0.64,CD,1705712105
211,umm kaddadah,13.6017,26.6876,13.72,21,6,5.61,SD,1705712105
212,isafjordur,66.0755,-23.124,-5.67,84,100,3.23,IS,1705712106
213,reguiba,33.5639,6.7033,18.03,14,0,3.6,DZ,1705712106
214,thanatpin,17.2119,96.3033,20.1,45,2,2.77,MM,1705712106
215,colonia,50.9333,6.95,-1.69,93,0,3.09,DE,1705712036
216,mount gambier,-37.8333,140.7667,27.18,24,100,3.19,AU,1705712106
217,keflavik,64.0049,-22.5624,0.24,93,100,16.98,IS,1705712106
218,sinabang,2.4803,96.3801,26.08,86,100,4.08,ID,1705712106
219,temiskaming shores,47.4938,-79.7153,-19.11,92,100,3.43,CA,1705712106
220,al bawiti,28.3492,28.8659,13.57,48,4,1.73,EG,1705712107
221,hamilton,39.1834,-84.5333,-8.31,75,100,6.17,US,1705712107
222,ust'-ilimsk,58.0006,102.6619,-31.98,100,24,0.45,RU,1705712107
223,hotan,37.0997,79.9269,-2.39,57,97,0.29,CN,1705712107
224,longboat key,27.4125,-82.659,19.05,91,75,3.09,US,1705712008
225,midvagur,62.0511,-7.1939,2.46,87,100,15.95,FO,1705712107
226,chengde,40.9725,117.9361,-7.89,40,100,1.03,CN,1705712107
227,lorengau,-2.0226,147.2712,29.75,70,100,6.09,PG,1705712107
228,narrabri,-30.3167,149.7833,34.18,46,0,0.89,AU,1705712108
229,lucas,41.6501,-83.6666,-6.92,66,100,4.12,US,1705712048
230,laguna,38.421,-121.4238,15.65,84,75,2.57,US,1705711940
231,grand falls-windsor,48.9332,-55.6649,-5.83,79,88,0.45,CA,1705712108
232,taoudenni,22.6783,-3.9836,20.5,12,100,1.24,ML,1705712108
233,paciran,-6.8767,112.3761,27.16,76,93,4.51,ID,1705712108
234,la passe,45.5549,-0.8967,-0.55,77,4,5.91,FR,1705712108
235,keetmanshoop,-26.5833,18.1333,26.51,24,2,0.51,NA,1705712109
236,dhidhdhoo,6.8833,73.1,27.43,77,11,5.68,MV,1705712109
237,taulaga,-11.0553,-171.0883,29.38,70,100,5.39,AS,1705712109
238,dakhla,23.6848,-15.958,20.01,73,35,11.83,EH,1705712109
239,darab,28.7519,54.5444,10.49,31,5,2.46,IR,1705712109
240,khanabad,36.6825,69.1156,5.4,80,16,0.39,AF,1705712109
241,manokwari,-0.8667,134.0833,28.27,73,66,1.0,ID,1705712109
242,malappuram,11.0667,76.0667,23.09,88,40,3.09,IN,1705712110
243,lamar,33.6668,-95.5836,-2.98,44,0,5.14,US,1705712110
244,west wodonga,-36.1257,146.8486,26.7,33,100,2.09,AU,1705712110
245,geraldton,-28.7667,114.6,24.23,69,40,6.69,AU,1705712111
246,muli,2.9167,73.5667,27.02,73,97,2.99,MV,1705712111
247,roma,43.2128,-75.4557,-10.03,71,20,4.63,US,1705712111
248,new norfolk,-42.7826,147.0587,19.95,47,100,0.98,AU,1705712111
249,alice springs,-23.7,133.8833,30.75,56,40,4.02,AU,1705712111
250,zanjan,36.6736,48.4787,3.05,53,100,2.68,IR,1705712111
251,tarauaca,-8.1614,-70.7656,23.92,95,97,0.65,BR,1705712111
252,chililabombwe,-12.3648,27.8229,17.83,97,100,2.84,ZM,1705712112
253,lijiang,26.8688,100.2207,0.49,58,1,1.26,CN,1705712112
254,arraial do cabo,-22.9661,-42.0278,24.92,83,0,2.57,BR,1705712112
255,flying fish cove,-10.4217,105.6791,27.82,83,25,2.06,CX,1705712112
256,vernon,50.2581,-119.2691,-3.55,84,100,2.57,CA,1705711823
257,krasnovishersk,60.4078,57.082,-3.26,94,100,5.54,RU,1705712112
258,soave,45.4211,11.2466,2.11,66,36,2.71,IT,1705712112
259,colares,38.7992,-9.4469,12.72,85,1,11.62,PT,1705712113
260,dera bugti,29.0307,69.151,12.51,28,88,1.79,PK,1705712113
261,kone,-21.0595,164.8658,33.3,57,36,1.95,NC,1705712113
262,codrington,-38.2667,141.9667,24.15,36,100,5.66,AU,1705712113
263,cabo san lucas,22.8909,-109.9124,24.61,68,5,2.24,MX,1705711603
264,port augusta,-32.5,137.7667,35.23,12,8,6.35,AU,1705712113
265,pallasovka,50.05,46.8833,0.87,93,100,7.25,RU,1705712114
266,baynjiwayn,35.6183,45.9541,3.65,71,99,1.18,IQ,1705712114
267,howard springs,-12.497,131.047,30.46,86,100,7.15,AU,1705712114
268,sandur,15.1,76.55,19.55,68,5,3.25,IN,1705712114
269,daru,-9.0763,143.2092,27.92,82,100,4.02,PG,1705712114
270,darabani,48.1833,26.5833,-3.02,90,98,4.77,RO,1705712115
271,mpraeso,6.5932,-0.7346,20.78,75,0,1.12,GH,1705712115
272,ar ruways,24.1103,52.7306,18.39,69,3,5.74,AE,1705712115
273,solwezi,-12.1688,26.3894,17.21,99,100,3.06,ZM,1705712115
274,aykhal,66.0,111.5,-25.83,95,100,2.29,RU,1705712115
275,myrina,39.8797,25.0742,12.58,82,0,2.57,GR,1705712115
276,kavaratti,10.5669,72.642,27.31,71,0,1.86,IN,1705712116
277,la foa,-21.7108,165.8276,30.47,65,51,3.51,NC,1705712116
278,charters towers,-20.1,146.2667,29.3,59,100,4.08,AU,1705712116
279,labrador city,52.9463,-66.9114,-10.05,79,100,5.66,CA,1705712116
280,saint-philippe,-21.3585,55.7679,23.77,86,98,2.26,RE,1705712116
281,hasaki,35.7333,140.8333,9.22,62,100,7.28,JP,1705712116
282,nizhneangarsk,55.7833,109.55,-25.55,87,20,3.13,RU,1705712116
283,ola,59.5833,151.2833,-21.59,86,65,2.06,RU,1705712116
284,susuman,62.7833,148.1667,-37.23,100,99,0.15,RU,1705712117
285,kudahuvadhoo,2.6708,72.8944,27.11,70,96,2.6,MV,1705712117
286,oodweyne,9.4092,45.064,17.76,37,83,2.19,SO,1705712117
287,vila velha,-20.3297,-40.2925,27.97,79,20,5.14,BR,1705712117
288,fortuna,40.5982,-124.1573,16.19,79,100,7.2,US,1705712117
289,noosa heads,-26.3833,153.15,28.52,79,100,3.51,AU,1705712117
290,virginia beach,36.8529,-75.978,3.02,67,75,9.77,US,1705711838
291,afaahiti,-17.75,-149.2833,29.93,71,64,0.41,PF,1705712118
292,greymouth,-42.4667,171.2,20.98,75,7,3.92,NZ,1705712118
293,torredembarra,41.1451,1.3986,9.02,100,100,0.51,ES,1705712118
294,santa ana de yacuma,-13.75,-65.4333,26.95,80,95,1.98,BO,1705712118
295,al kharj,24.155,47.3346,12.32,41,6,1.99,SA,1705712118
296,nazca,-14.8333,-74.95,24.32,73,100,1.08,PE,1705712118
297,voskresenskoye,56.8381,45.4317,-12.22,97,100,0.58,RU,1705712118
298,contamana,-7.3333,-75.0167,26.06,79,89,1.22,PE,1705712119
299,ajasse ipo,8.2333,4.8167,21.58,15,0,1.34,NG,1705712119
300,jordbro,59.1497,18.1167,-11.2,93,100,1.34,SE,1705712119
301,pavlodar,52.3,76.95,-17.11,85,75,4.0,KZ,1705712119
302,severo-yeniseyskiy,60.3725,93.0408,-21.35,100,100,0.89,RU,1705712119
303,punta alta,-38.8759,-62.0736,20.64,60,0,8.17,AR,1705712119
304,rongelap,11.1635,166.8941,26.03,74,91,11.19,MH,1705712120
305,barsukovskaya,44.7632,41.8191,8.08,85,100,2.54,RU,1705712120
306,edd,13.9297,41.6925,25.71,72,100,1.22,ER,1705712120
307,mweka,-4.85,21.5667,21.69,77,81,0.54,CD,1705712120
308,thompson,55.7435,-97.8558,-12.91,85,100,3.09,CA,1705712120
309,fereydunshahr,32.941,50.121,-2.46,41,100,1.1,IR,1705712120
310,tazacorte,28.629,-17.9293,17.54,74,40,5.14,ES,1705712120
311,debre birhan,9.6833,39.5333,10.6,85,100,1.41,ET,1705712121
312,santa ana,33.7456,-117.8678,22.01,61,75,3.6,US,1705711914
313,manta,-0.95,-80.7333,28.89,67,75,4.47,EC,1705712121
314,urangan,-25.3,152.9,31.78,73,26,4.02,AU,1705712121
315,rio grande,-32.035,-52.0986,25.06,94,100,4.04,BR,1705712121
316,as sulayyil,20.4607,45.5779,15.14,44,21,4.1,SA,1705712122
317,kirensk,57.7853,108.1119,-35.58,100,93,0.45,RU,1705712122
318,filadelfia,39.9523,-75.1638,-1.99,91,100,3.6,US,1705711951
319,huarmey,-10.0681,-78.1522,23.41,83,99,3.59,PE,1705712122
320,nan,18.8333,100.6667,16.01,94,0,1.54,TH,1705712122
321,puerto armuelles,8.2833,-82.8667,28.99,80,8,1.79,PA,1705712065
322,guerrero negro,27.9769,-114.0611,17.8,71,100,4.84,MX,1705712122
323,lionel town,17.8101,-77.2406,27.94,83,2,3.14,JM,1705712122
324,port alfred,-33.5906,26.891,19.54,80,5,3.13,ZA,1705712122
325,kruisfontein,-34.0033,24.7314,16.05,91,0,2.82,ZA,1705712123
326,mokhsogollokh,61.4681,128.9203,-37.65,100,99,0.62,RU,1705712123
327,happy valley-goose bay,53.3168,-60.3315,-1.83,74,100,3.09,CA,1705712123
328,molepolole,-24.4066,25.4951,18.09,67,51,2.92,BW,1705712123
329,kattivakkam,13.2167,80.3167,24.05,78,30,2.33,IN,1705712123
330,salina,38.8403,-97.6114,-12.16,70,0,3.09,US,1705712124
331,kalmunai,7.4167,81.8167,24.98,86,0,1.14,LK,1705712124
332,batamshinskiy,50.5594,58.2747,-10.8,85,100,4.85,KZ,1705712124
333,tazovsky,67.4667,78.7,-15.4,87,100,10.05,RU,1705712124
334,askoy,60.4092,5.226,-1.25,100,75,0.51,NO,1705712124
335,karratha,-20.7377,116.8463,30.61,60,6,5.84,AU,1705712124
336,letlhakeng,-24.0944,25.0298,18.12,69,45,2.81,BW,1705712124
337,santa cruz,-17.8,-63.1667,26.7,83,88,3.09,BO,1705712125
338,zahedan,29.4963,60.8629,1.95,100,0,3.09,IR,1705712125
339,toamasina,-18.1667,49.3833,23.0,100,75,3.09,MG,1705712125
340,malanje,-9.5402,16.341,15.87,98,9,1.93,AO,1705712125
341,crane,31.3974,-102.3501,2.01,28,0,5.1,US,1705712125
342,forster,-32.1667,152.5167,26.88,68,0,4.89,AU,1705712125
343,al fallujah,33.3538,43.7795,13.03,66,5,1.32,IQ,1705712125
344,cockburn town,21.4612,-71.1419,25.88,84,100,6.28,TC,1705711903
345,gladstone,-23.85,151.25,31.96,62,75,4.12,AU,1705712126
346,shenjiamen,29.9576,122.298,7.76,93,100,8.61,CN,1705712126
347,newman,37.3138,-121.0208,14.6,94,100,0.45,US,1705712126
348,grenaa,56.4158,10.8783,4.12,96,100,13.22,DK,1705712126
349,tan-tan,28.438,-11.1032,15.81,88,59,4.23,MA,1705712120
350,gizo,-8.103,156.8419,27.57,84,100,4.75,SB,1705712126
351,antsiranana,-12.2787,49.2917,25.65,90,100,8.18,MG,1705712126
352,ayr,55.4627,-4.6339,6.95,70,20,7.2,GB,1705712126
353,anna regina,7.2644,-58.5077,25.99,77,5,4.63,GY,1705712127
354,coihueco,-36.6167,-71.8333,26.41,32,0,5.14,CL,1705711893
355,ma'an,26.9775,110.7211,3.86,85,100,2.42,CN,1705712127
356,isla mujeres,21.2311,-86.731,25.09,81,81,2.76,MX,1705712127
357,serhetabat,35.2799,62.3438,2.15,83,2,0.25,TM,1705712127
358,parfino,57.9731,31.6481,-8.65,94,96,2.11,RU,1705712127
359,ilhabela,-23.7781,-45.3581,26.37,85,9,2.36,BR,1705712128
360,daruvar,45.5906,17.225,-2.5,88,100,1.69,HR,1705712128
361,barcelos,41.5388,-8.6151,9.91,86,8,1.39,PT,1705712128
362,mount pearl,47.5166,-52.7813,-2.86,79,100,15.43,CA,1705712128
363,gaspe,48.8334,-64.4819,-7.05,73,0,4.12,CA,1705712128
364,dalandzadgad,43.5708,104.425,-19.79,94,88,6.72,MN,1705712128
365,lerwick,60.1545,-1.1494,3.0,79,100,6.67,GB,1705712128
366,herkimer,43.0256,-74.986,-7.68,82,100,4.02,US,1705712128
367,moose jaw,50.4001,-105.5344,-15.86,78,89,3.09,CA,1705712003
368,namibe,-15.1961,12.1522,21.67,77,70,2.01,AO,1705712129
369,thinadhoo,0.5333,72.9333,27.61,70,19,3.81,MV,1705712129
370,iquique,-20.2208,-70.1431,23.02,86,100,1.01,CL,1705711840
371,chui,-33.6971,-53.4616,21.23,89,100,6.1,UY,1705712129
372,saposoa,-6.934,-76.7716,23.0,97,100,1.42,PE,1705712129
373,stepnogorsk,52.3544,71.8869,-23.51,99,10,2.38,KZ,1705712129
374,carutapera,-1.195,-46.02,25.1,92,15,2.27,BR,1705712129
375,chudniv,50.052,28.1175,-3.16,89,100,4.3,UA,1705712130
376,east london,-33.0153,27.9116,19.86,74,16,8.01,ZA,1705712130
377,lindi,-10.0,39.7167,24.25,96,100,1.3,TZ,1705712130
378,fisterra,42.9049,-9.2629,5.42,66,0,7.32,ES,1705712130
379,kununurra,-15.7667,128.7333,25.99,94,100,4.12,AU,1705711831
380,yeppoon,-23.1333,150.7333,31.88,64,100,3.73,AU,1705712130
381,rockland,41.1668,-74.0496,-3.53,80,99,2.25,US,1705712131
382,al ghayzah,16.2079,52.176,23.41,58,5,2.09,YE,1705712131
383,kaspiyskiy,45.3929,47.3707,2.48,93,100,5.71,RU,1705712131
384,longmen,24.9597,118.0889,16.34,74,60,0.97,CN,1705712131
385,valparaiso,-33.0393,-71.6273,16.8,72,0,0.0,CL,1705712131
386,xi'an,34.2583,108.9286,-0.55,77,100,0.85,CN,1705712132
387,bereket,39.2446,55.5154,4.91,75,2,6.53,TM,1705712132
388,nueve de julio,-35.4444,-60.8831,23.87,43,0,1.34,AR,1705712132
389,thunder bay,48.4001,-89.3168,-15.05,66,20,1.54,CA,1705712092
390,salalah,17.0151,54.0924,25.05,31,0,5.14,OM,1705712132
391,hovd,48.0056,91.6419,-18.87,66,1,1.67,MN,1705712133
392,luderitz,-26.6481,15.1594,15.98,94,39,1.13,NA,1705712133
393,muisne,0.6,-80.0333,25.59,91,100,1.72,EC,1705712133
394,pavlodol'skaya,43.7192,44.4781,0.23,85,100,1.12,RU,1705712133
395,pochinok,54.4068,32.4407,-8.48,96,100,2.32,RU,1705712133
396,bayanhongor,46.7167,100.1167,-31.81,88,4,2.06,MN,1705712133
397,tamanrasset,22.785,5.5228,8.95,10,0,1.54,DZ,1705712134
398,can giuoc,10.6167,106.6667,26.02,76,100,1.37,VN,1705712134
399,viana do castelo,41.6932,-8.8329,7.18,82,2,2.67,PT,1705712134
400,puerto carreno,6.189,-67.4859,31.08,45,80,1.64,CO,1705712134
401,bardai,11.65,7.2333,16.93,15,0,4.02,NG,1705712134
402,mamadysh,55.7152,51.408,-3.4,96,100,7.52,RU,1705712134
403,coahuayana de hidalgo,18.7,-103.6583,24.91,76,100,1.15,MX,1705712135
404,vila franca do campo,37.7167,-25.4333,18.27,99,100,7.04,PT,1705712135
405,trebechovice pod orebem,50.201,15.9922,-3.97,93,23,0.45,CZ,1705712135
406,lycksele,64.5954,18.6735,-34.07,75,57,0.51,SE,1705712135
407,concordia,-31.393,-58.0209,26.55,70,87,1.79,AR,1705712135
408,box elder,41.5005,-112.8764,-1.56,90,100,1.31,US,1705712135
409,sur,22.5667,59.5289,22.49,66,97,0.83,OM,1705712136
410,takoradi,4.8845,-1.7554,26.46,82,0,2.19,GH,1705712136
411,mejit,10.2753,170.8646,26.74,82,96,9.32,MH,1705712136
412,acapulco de juarez,16.8634,-99.8901,28.9,74,75,2.57,MX,1705711959
413,watford city,47.8022,-103.2832,-18.08,92,100,0.0,US,1705712136
414,zlatna,46.1167,23.2167,-1.23,82,100,0.85,RO,1705712136
415,nuuk,64.1835,-51.7216,-16.38,93,29,2.17,GL,1705712136
416,morehead city,34.7229,-76.726,8.0,61,20,7.72,US,1705712137
417,concepcion de ataco,13.8703,-89.8486,17.05,84,0,0.8,SV,1705712137
418,san juan de miraflores,-12.1629,-76.9635,25.09,76,99,3.37,PE,1705712137
419,ilha de mocambique,-15.0342,40.7358,25.58,84,100,6.99,MZ,1705712137
420,san patricio,28.017,-97.5169,11.97,38,0,6.96,US,1705712137
421,mili,6.0815,171.735,28.05,78,100,8.24,MH,1705712137
422,grootfontein,-19.5667,18.1167,17.76,94,99,2.57,NA,1705712137
423,agboville,5.928,-4.2132,23.81,93,0,0.66,CI,1705712138
424,labytnangi,66.6572,66.4183,-10.72,95,100,6.33,RU,1705712138
425,east end,34.5507,-92.341,-1.16,61,10,2.96,US,1705712138
426,sidon,33.5631,35.3689,15.73,65,2,0.96,LB,1705712138
427,farim,12.4839,-15.2217,20.78,77,99,1.99,GW,1705712139
428,malango,-2.9627,119.9001,21.95,91,100,0.67,ID,1705712139
429,inirida,3.8653,-67.9239,26.25,76,55,0.37,CO,1705712139
430,ulsteinvik,62.3432,5.8487,-0.93,85,15,1.34,NO,1705712139
431,ulaangom,49.9811,92.0667,-31.73,92,90,1.26,MN,1705712139
432,colby,39.3958,-101.0524,-9.98,66,0,1.54,US,1705712139
433,sultanah,24.4926,39.5857,18.25,32,0,3.6,SA,1705712140
434,businga,3.3333,20.8833,21.13,39,62,1.21,CD,1705712140
435,guatrache,-37.6678,-63.5302,23.27,24,0,3.89,AR,1705712140
436,sylva,58.0348,56.7635,-3.35,94,100,5.48,RU,1705712140
437,kalispell,48.1958,-114.3129,-10.68,86,100,0.0,US,1705712140
438,popayan,2.4382,-76.6132,16.95,92,100,1.78,CO,1705711998
439,zijinglu,34.76,112.9714,-0.34,56,7,0.32,CN,1705712141
440,tchintabaraden,15.8969,5.7985,18.7,14,0,4.71,NE,1705712141
441,omuo-ekiti,7.7583,5.7223,22.86,18,2,0.57,NG,1705712141
442,dongfeng,42.6403,125.5118,-13.38,73,100,3.13,CN,1705712141
443,alaghsas,17.0187,8.0168,19.57,13,0,4.93,NE,1705712141
444,ovalle,-30.5983,-71.2003,24.8,48,0,1.48,CL,1705712141
445,daoukro,7.0591,-3.9631,23.03,57,2,1.07,CI,1705712141
446,al wajh,26.2455,36.4525,17.97,42,0,2.06,SA,1705712142
447,feijo,-8.1642,-70.3536,23.55,97,74,1.01,BR,1705712142
448,bubaque,11.2833,-15.8333,24.78,76,86,8.89,GW,1705712142
449,turkmenbasy,40.0222,52.9552,-1.57,93,0,2.06,TM,1705712142
450,saynshand,44.8824,110.1163,-17.71,94,100,5.81,MN,1705712142
451,bandrele,-12.9067,45.1914,28.86,79,75,7.72,YT,1705712142
452,cidreira,-30.1811,-50.2056,24.29,91,83,1.43,BR,1705712143
453,lodja,-3.4833,23.4333,21.89,81,100,0.11,CD,1705712143
454,las heras,-46.5419,-68.9359,19.64,22,94,7.18,AR,1705712143
455,metu,8.3,35.5833,14.26,71,92,1.14,ET,1705712143
456,trenggalek,-8.05,111.7167,26.55,81,99,1.86,ID,1705712143
457,selfoss,63.9331,-20.9971,-0.53,70,100,11.13,IS,1705712143
458,egilsstadir,65.2653,-14.3948,-10.05,79,75,2.06,IS,1705712143
459,brokopondo,4.75,-55.1667,26.68,70,28,5.59,SR,1705712143
460,pionerskiy,54.9508,20.2275,-1.03,79,100,7.48,RU,1705712144
461,inyonga,-6.7167,32.0667,18.28,96,100,1.8,TZ,1705712144
462,malaya vishera,58.8454,32.2222,-13.72,98,31,1.94,RU,1705712144
463,swift current,50.2834,-107.8014,-19.55,77,0,6.17,CA,1705712144
464,timbuktu,16.7735,-3.0074,20.7,12,5,3.66,ML,1705712144
465,channapatna,12.65,77.2167,17.92,91,16,2.19,IN,1705712145
466,arkhangel'sk,64.5401,40.5433,-8.94,85,75,6.0,RU,1705712145
467,manismata,-2.4667,111.0333,25.15,93,100,1.26,ID,1705712145
468,broome,42.2506,-75.833,-7.39,81,100,6.17,US,1705712145
469,west bay,19.3667,-81.4167,28.89,72,20,3.6,KY,1705712145
470,elmali,36.7358,29.9177,6.19,76,100,1.56,TR,1705712145
471,ujae,8.9322,165.7642,26.36,84,100,11.4,MH,1705712145
472,moissala,8.3404,17.7663,21.27,19,5,1.44,TD,1705712145
473,yar,58.249,52.1026,-2.34,96,100,5.08,RU,1705712146
474,piti village,13.4626,144.6933,29.49,64,40,9.26,GU,1705712146
475,guarapari,-20.6667,-40.4975,27.16,83,99,4.46,BR,1705712146
476,naze,28.3667,129.4833,18.51,80,2,5.43,JP,1705712146
477,araucaria,-25.5931,-49.4103,24.45,96,100,1.62,BR,1705712146
478,descalvado,-21.9039,-47.6194,21.49,81,79,1.65,BR,1705712146
479,dryden,49.7833,-92.7503,-18.84,71,20,1.54,CA,1705712146
480,luanco,43.6152,-5.7934,4.92,68,23,4.48,ES,1705712147
481,luganville,-15.5333,167.1667,30.76,73,100,3.05,VU,1705712147
482,wynyard,-41.0,145.7167,18.15,64,100,2.05,AU,1705712147
483,baker city,44.7749,-117.8344,7.58,79,100,5.66,US,1705712147
484,taro,-8.3862,115.28,26.03,82,100,1.48,ID,1705712147
485,ngama,11.7833,17.1667,19.96,13,1,4.16,TD,1705712147
486,beibei,29.8256,106.4339,12.43,83,100,1.02,CN,1705712148
487,popondetta,-8.7537,148.2534,30.04,68,100,0.65,PG,1705712148
488,port moresby,-9.4431,147.1797,27.23,75,100,1.98,PG,1705712148
489,smara,26.7384,-11.6719,14.61,84,90,4.18,EH,1705712148
490,westport,41.1415,-73.3579,-2.32,69,100,4.12,US,1705712148
491,sosnovo-ozerskoye,52.5249,111.5418,-35.74,100,70,0.36,RU,1705712148
492,shalkar,47.8288,59.6258,-11.73,90,74,3.78,KZ,1705712148
493,puerto lempira,15.2667,-83.7667,26.08,83,40,4.63,HN,1705712148
494,concepcion,-36.827,-73.0498,18.89,59,0,8.23,CL,1705712149
495,natal,-5.795,-35.2094,28.12,78,75,4.12,BR,1705712149
496,yanjiang,30.1211,104.6481,10.47,75,100,2.46,CN,1705712149
497,minas de marcona,-15.2119,-75.1103,18.23,91,100,4.34,PE,1705712149
498,vryburg,-26.9566,24.7284,18.11,31,0,2.78,ZA,1705712149
499,kalifornsky,60.4183,-151.29,-6.81,66,0,3.09,US,1705712149
500,molde,62.7375,7.1591,-3.09,100,75,3.09,NO,1705711888
501,leava,-14.3,-178.1667,28.95,78,100,5.06,WF,1705712149
502,galveston,29.3669,-94.9669,11.06,52,0,6.69,US,1705712150
503,essaouira,31.5125,-9.77,13.72,88,20,2.06,MA,1705712150
504,pugachev,52.0133,48.8025,-0.25,93,100,8.03,RU,1705712150
505,babu,24.4167,111.5167,9.66,86,90,3.73,CN,1705712150
506,kirakira,-10.4544,161.9205,27.1,89,100,3.95,SB,1705712150
507,uliastay,47.7417,96.8444,-29.78,85,5,2.55,MN,1705712150
508,sargodha,32.0836,72.6711,9.22,37,30,0.51,PK,1705712150
509,knysna,-34.0363,23.0471,21.72,51,0,2.1,ZA,1705712150
510,turuntayevo,52.2,107.6167,-26.65,99,97,0.42,RU,1705712151
511,ebon,4.582,168.6964,28.5,79,39,7.27,MH,1705712151
512,darnah,32.767,22.6367,18.57,40,100,2.07,LY,1705712151
513,aripuana,-9.1667,-60.6333,23.62,92,100,0.67,BR,1705712151
514,weno,7.4515,151.8468,28.97,74,75,7.2,FM,1705712151
515,saint louis,38.6334,-90.4001,-11.14,65,98,1.79,US,1705711916
516,motygino,58.1831,94.7592,-25.85,99,100,1.54,RU,1705712151
517,abu jibeha,11.4562,31.2285,17.55,16,2,3.03,SD,1705712151
518,hammerfest,70.6634,23.6821,-5.75,93,75,2.06,NO,1705712151
519,mana,5.6592,-53.7767,25.6,84,6,4.66,GF,1705712152
520,ascoli piceno,42.8548,13.5749,5.61,90,100,0.45,IT,1705712152
521,kokopo,-4.352,152.2633,27.87,78,100,4.26,PG,1705712152
522,balabac,7.9868,117.0645,27.66,74,100,4.51,PH,1705712152
523,saint-marc,19.1082,-72.6938,25.61,71,31,1.17,HT,1705712152
524,pasuquin,18.3328,120.6177,23.97,88,20,2.57,PH,1705712152
525,bashmakovo,53.2133,43.0342,-0.03,99,100,1.79,RU,1705712152
526,nantucket,41.2835,-70.0995,-2.78,89,100,10.14,US,1705711996
527,la'ie,21.6477,-157.9253,28.12,68,67,2.54,US,1705712152
528,berezovo,63.9381,65.0419,-7.37,92,100,6.87,RU,1705712153
529,portland,45.5234,-122.6762,4.4,78,75,6.17,US,1705711876
530,santa cruz do rio pardo,-22.8989,-49.6325,23.93,84,100,1.45,BR,1705712153
531,olyokminsk,60.3736,120.4264,-25.38,97,100,1.71,RU,1705712153
532,maintirano,-18.0667,44.0167,25.19,90,46,1.47,MG,1705712153
533,sabang,5.8933,95.3214,27.81,75,65,6.26,ID,1705712153
534,oruro,-17.9833,-67.15,14.27,58,40,3.09,BO,1705712153
535,winkler,49.1817,-97.941,-14.88,78,96,1.54,CA,1705712153
536,viqueque,-8.8673,126.3658,30.5,66,100,0.74,TL,1705712154
537,malvan,16.0667,73.4667,21.22,82,5,4.65,IN,1705712154
538,rurrenabaque,-14.4413,-67.5278,25.08,89,100,0.91,BO,1705712154
539,saldanha,-33.0117,17.9442,20.03,73,0,3.16,ZA,1705712154
540,san sebastian de la gomera,28.0916,-17.1133,19.65,59,40,5.66,ES,1705712154
541,sena madureira,-9.0656,-68.6569,24.37,94,92,1.2,BR,1705712154
542,vinzili,56.9594,65.7708,-9.69,83,100,4.85,RU,1705712154
543,saint-joseph,-21.3667,55.6167,23.21,86,96,2.0,RE,1705712155
544,qujing,25.4833,103.7833,6.52,66,91,1.14,CN,1705712155
545,tawau,4.2498,117.8871,26.07,94,100,1.58,MY,1705712155
546,rada tilly,-45.9333,-67.5333,20.27,32,0,4.63,AR,1705712155
547,dondo,-19.6094,34.7431,25.73,91,84,4.14,MZ,1705712155
548,creston,41.0586,-94.3614,-19.02,78,40,4.63,US,1705712155
549,viedma,-40.8135,-62.9967,18.41,48,0,5.47,AR,1705712046
550,santa luzia,-19.7697,-43.8514,25.43,63,0,2.57,BR,1705712155
551,lagoa,39.05,-27.9833,16.2,87,100,7.95,PT,1705712156
552,ta`u,-14.2336,-169.5144,28.4,78,100,7.51,AS,1705712156
553,mont-dore,-22.2833,166.5833,32.99,99,22,4.29,NC,1705712156
554,zaozersk,69.4005,32.4476,-4.68,90,100,8.2,RU,1705712156
555,queenstown,-31.8976,26.8753,13.56,87,67,0.97,ZA,1705712156
556,bengkulu,-3.8004,102.2655,25.36,88,97,2.19,ID,1705712156
557,kenai,60.5544,-151.2583,-6.95,65,0,3.09,US,1705712156
